[
  {
    "id": "1",
    "name": "Санкт-Петербург",
    "lat": "59.939098",
    "lon": "30.315868"
  },
  {
    "id": 15,
    "name": "Жепа",
    "lat": "43.955202",
    "lon": "19.138796"
  },
  {
    "id": 16,
    "name": "Кутаиси",
    "lat": "42.271469",
    "lon": "42.705540"
  },
  {
    "id": 17,
    "name": "Бухалово",
    "lat": "57.945260",
    "lon": "40.531015"
  },
  {
    "id": 40,
    "name": "Пинск",
    "lat": 52.1124967,
    "lon": 26.0634602
  },
  {
    "id": 179,
    "name": "Владикавказ",
    "lat": 43.024616,
    "lon": 44.681771
  },
  {
    "id": 180,
    "name": "Маниса",
    "lat": 38.618111,
    "lon": 27.419421
  },
  {
    "id": 181,
    "name": "Ровеньки",
    "lat": 48.087797,
    "lon": 39.370123
  },
  {
    "id": 182,
    "name": "Токио",
    "lat": 35.681729,
    "lon": 139.753927
  },
  {
    "id": 181,
    "name": "Podzeplje",
    "lat": 44.046099,
    "lon": 19.085697
  }
]